date,nation,city,cause,latitude,longitude
2019-12,China,Wuhan,Zoonotic transmission (Huanan Seafood Market),30.5928,114.3055
2020-01,Thailand,Bangkok,Imported case from Wuhan,13.7563,100.5018
2020-01,Japan,Kanagawa,Imported case from Wuhan,35.4478,139.6425
2020-01,Republic of Korea,Incheon,Imported case from Wuhan,37.4563,126.7052
2020-01,United States of America,Washington State,Imported case from Wuhan,47.7511,-120.7401
2020-01,Italy,Rome,Imported cases from China,41.9028,12.4964
